,City,Country,Date,Lat,Lng,Max_Temp,Humidity,Cloudiness,Wind_Speed
0,Abū Zabad,SD,1641778396,12.35,29.25,75.74,28,45,8.41
1,East London,ZA,1641778397,-33.0153,27.9116,71.13,89,100,6.46
2,Mandiana,GN,1641778397,10.6333,-8.6833,69.96,21,13,5.57
3,Castro,BR,1641778397,-24.7911,-50.0119,56.73,94,83,5.14
4,Atuona,PF,1641778398,-9.8,-139.0333,78.17,78,84,18.72
5,Valley City,US,1641778203,46.9233,-98.0032,-1.21,71,0,6.91
6,Busselton,AU,1641778398,-33.65,115.3333,70.09,41,100,9.62
7,Vallenar,CL,1641778398,-28.5708,-70.7581,68.18,58,97,3.78
8,Port Alfred,ZA,1641778398,-33.5906,26.891,70.75,91,100,20.22
9,Barrow,US,1641778399,71.2906,-156.7887,-16.58,69,0,3.44
10,Andenes,NO,1641778315,69.3143,16.1194,17.58,86,12,9.22
11,Shingū,JP,1641778399,33.7333,135.9833,50.99,48,0,3.06
12,Zhigansk,RU,1641778399,66.7697,123.3711,-28.89,95,100,20.49
13,Derzhavīnsk,KZ,1641778400,51.1,66.3167,-10.28,100,37,5.26
14,Cape Town,ZA,1641778140,-33.9258,18.4232,67.12,86,75,3.0
15,Qui Nhon,VN,1641778400,13.7667,109.2333,75.94,81,44,6.98
16,Provideniya,RU,1641778400,64.3833,-173.3,6.91,61,0,20.13
17,Lichinga,MZ,1641778401,-13.3128,35.2406,62.69,100,100,6.91
18,Punta Arenas,CL,1641778401,-53.15,-70.9167,50.11,62,75,19.57
19,Hofn,IS,1641778401,64.2539,-15.2082,40.78,91,100,24.99
20,Lake Havasu City,US,1641778401,34.4839,-114.3224,63.21,24,0,4.0
21,Vanimo,PG,1641778402,-2.6741,141.3028,80.55,82,97,5.79
22,Rikitea,PF,1641778196,-23.1203,-134.9692,77.99,80,100,19.55
23,Mahajanga,MG,1641778402,-15.7167,46.3167,75.22,94,40,4.61
24,Kaeo,NZ,1641778402,-35.1,173.7833,74.59,61,99,7.72
25,Port Hardy,CA,1641778222,50.6996,-127.4199,48.2,75,75,23.02
26,Ascension,US,1641778402,30.2169,-90.9001,72.01,92,100,0.0
27,Puerto Escondido,MX,1641778403,15.85,-97.0667,79.63,69,0,0.0
28,Parkes,AU,1641778403,-33.1333,148.1833,91.35,52,0,1.99
29,Vao,NC,1641778403,-22.6667,167.4833,77.36,77,0,21.94
30,Sampit,ID,1641778185,-2.5333,112.95,81.27,83,91,1.63
31,Tasiilaq,GL,1641778404,65.6145,-37.6368,32.16,67,100,48.79
32,Ushuaia,AR,1641778153,-54.8,-68.3,44.26,70,100,0.0
33,Kaitangata,NZ,1641778204,-46.2817,169.8464,66.92,87,50,7.94
34,Beloha,MG,1641778404,-25.1667,45.05,73.11,81,100,11.1
35,Kapaa,US,1641778205,22.0752,-159.319,80.47,61,0,4.0
36,Dikson,RU,1641778404,73.5069,80.5464,-12.59,100,97,5.44
37,Kruisfontein,ZA,1641778404,-34.0033,24.7314,69.89,79,100,15.17
38,Bredasdorp,ZA,1641778405,-34.5322,20.0403,70.92,73,100,10.36
39,Hualmay,PE,1641778405,-11.0964,-77.6139,70.92,81,33,10.36
40,Albany,US,1641778278,42.6001,-73.9662,37.38,91,100,1.01
41,La Romana,DO,1641778405,18.4273,-68.9728,76.73,88,20,0.0
42,Arraial do Cabo,BR,1641778405,-22.9661,-42.0278,68.95,93,100,5.06
43,Port Moresby,PG,1641778406,-9.4431,147.1797,89.02,62,40,10.36
44,Palu,ID,1641778406,-0.8917,119.8707,89.51,55,37,1.7
45,Baykit,RU,1641778406,61.67,96.37,14.04,97,100,1.07
46,Hithadhoo,MV,1641778407,-0.6,73.0833,81.64,71,3,5.64
47,Hermanus,ZA,1641778407,-34.4187,19.2345,66.9,87,79,1.77
48,Tabou,CI,1641778407,4.423,-7.3528,78.91,84,100,2.26
49,Nemuro,JP,1641778407,43.3236,145.575,23.43,57,0,12.24
50,Hobart,AU,1641778268,-42.8794,147.3294,75.11,80,75,13.8
51,Karratha,AU,1641778408,-20.7377,116.8463,90.7,44,0,13.38
52,São João da Barra,BR,1641778408,-21.6403,-41.0511,69.75,97,100,9.66
53,La Peca,PE,1641778408,-5.6111,-78.435,70.14,81,100,2.46
54,Yārāda,IN,1641778408,17.65,83.2667,68.32,100,20,0.0
55,Butaritari,KI,1641778409,3.0707,172.7902,81.64,77,62,17.74
56,Cidreira,BR,1641778409,-30.1811,-50.2056,72.16,73,37,16.87
57,Dhali,IN,1641778409,10.5,77.1667,71.65,84,47,1.34
58,Esperance,AU,1641778409,-33.8667,121.9,66.04,60,73,15.64
59,Avarua,CK,1641778118,-21.2078,-159.775,84.25,74,75,16.11
60,George Town,MY,1641778410,5.4112,100.3354,82.33,72,20,5.01
61,Hilo,US,1641778273,19.7297,-155.09,78.53,78,75,9.22
62,Naze,JP,1641778410,28.3667,129.4833,59.92,72,99,8.84
63,Chui,UY,1641778410,-33.6971,-53.4616,68.88,81,0,11.21
64,Isangel,VU,1641778410,-19.55,169.2667,86.11,79,75,16.11
65,Mar del Plata,AR,1641778206,-38.0023,-57.5575,74.08,43,0,3.0
66,Ponta do Sol,PT,1641778411,32.6667,-17.1,65.12,27,100,8.12
67,Bluff,NZ,1641778411,-46.6,168.3333,69.8,85,89,10.56
68,Vaini,TO,1641778411,-21.2,-175.2,78.96,94,100,9.22
69,Orlik,RU,1641778411,52.5178,99.825,-10.21,83,87,2.21
70,Maturin,VE,1641778412,9.75,-63.1767,69.06,92,77,5.35
71,Boutersem,BE,1641778412,50.8346,4.8311,35.17,95,4,4.61
72,Calhoun,US,1641778138,42.2506,-85.0005,19.54,55,75,10.36
73,Lavrentiya,RU,1641778412,65.5833,-171.0,-10.91,82,2,10.92
74,São Filipe,CV,1641778413,14.8961,-24.4956,73.13,67,100,4.79
75,Cherskiy,RU,1641778197,68.75,161.3,-14.55,98,100,3.4
76,Katsuura,JP,1641778413,35.1333,140.3,52.2,81,100,20.71
77,Ribeira Grande,PT,1641778413,38.5167,-28.7,61.3,77,100,22.3
78,New Norfolk,AU,1641778413,-42.7826,147.0587,75.76,66,95,3.0
79,Yellowknife,CA,1641778200,62.456,-114.3525,-26.45,88,40,4.61
80,Broome,US,1641778414,42.2506,-75.833,36.63,75,100,5.99
81,Carnarvon,AU,1641778414,-24.8667,113.6333,82.47,30,0,14.97
82,Leningradskiy,RU,1641778414,69.3833,178.4167,-18.96,93,27,2.21
83,Poconé,BR,1641778414,-16.2567,-56.6228,74.52,95,28,5.5
84,Twin Falls,US,1641778415,42.3505,-114.6445,23.34,80,0,12.66
85,Christchurch,NZ,1641778269,-43.5333,172.6333,80.33,61,28,1.99
86,Lucapa,AO,1641778415,-8.4192,20.7447,65.41,96,100,2.95
87,Leshukonskoye,RU,1641778415,64.8989,45.7622,-1.66,97,85,8.39
88,Sistranda,NO,1641778415,63.7256,8.834,32.9,66,0,9.84
89,Tiksi,RU,1641778416,71.6872,128.8694,-2.36,84,100,22.37
90,Ketchikan,US,1641778256,55.3422,-131.6461,42.78,93,100,23.02
91,Pasni,PK,1641778416,25.2631,63.471,62.51,39,0,16.35
92,Novy Urengoy,RU,1641778416,66.0833,76.6333,-11.07,96,91,9.19
93,Kwang Binh,VN,1641778416,17.4833,106.6,72.19,86,99,1.59
94,Mataura,NZ,1641778417,-46.1927,168.8643,69.48,45,42,1.9
95,Kahului,US,1641778417,20.8947,-156.47,82.42,68,20,8.05
96,Bethel,US,1641778417,41.3712,-73.414,38.05,91,100,1.99
97,Riyadh,SA,1641778216,24.6877,46.7219,53.74,32,3,9.19
98,Laguna,US,1641778417,38.421,-121.4238,56.05,77,0,1.01
99,Bathsheba,BB,1641778418,13.2167,-59.5167,77.61,69,40,19.57
100,Egvekinot,RU,1641778418,66.3167,-179.1667,-8.63,59,0,14.23
101,Salinópolis,BR,1641778418,-0.6136,-47.3561,75.94,90,100,5.17
102,Mmabatho,ZA,1641778418,-25.85,25.6333,60.76,88,46,8.05
103,Hasaki,JP,1641778419,35.7333,140.8333,46.8,65,100,18.1
104,Kagadi,UG,1641778419,0.9606,30.7967,65.52,73,89,2.62
105,Puerto Ayora,EC,1641778271,-0.7393,-90.3518,72.82,89,100,5.3
106,Ginir,ET,1641778419,7.1333,40.7,55.53,72,4,2.53
107,Severo-Kuril'sk,RU,1641778420,50.6789,156.125,31.14,86,83,7.94
108,Tarko-Sale,RU,1641778420,64.9225,77.785,-18.35,99,67,9.4
109,Bǝrdǝ,AZ,1641778420,40.3744,47.1267,39.16,84,51,2.48
110,Ariquemes,BR,1641778420,-9.9133,-63.0408,72.01,99,90,3.2
111,Kem',RU,1641778421,64.9555,34.5793,0.45,94,8,8.23
112,Ilulissat,GL,1641778421,69.2167,-51.1,15.82,79,100,9.22
113,Blackwater,AU,1641778421,-23.5833,148.8833,91.87,36,1,13.02
114,Maroua,CM,1641778421,10.591,14.3159,68.83,27,14,7.94
115,Port-Gentil,GA,1641778422,-0.7193,8.7815,79.88,83,100,10.63
116,Shimoda,JP,1641778422,34.6667,138.95,53.71,69,81,14.83
117,Mae Hong Son,TH,1641778422,19.3003,97.9685,57.34,100,20,0.0
118,Taoudenni,ML,1641778423,22.6783,-3.9836,54.0,20,97,11.39
119,Ladário,BR,1641778423,-19.0047,-57.6017,76.39,78,7,3.6
120,Geraldton,AU,1641778423,-28.7667,114.6,81.12,26,0,18.41
121,Nanortalik,GL,1641778423,60.1432,-45.2371,18.82,79,99,31.85
122,Monroe,US,1641778361,43.1501,-77.6831,31.96,72,75,26.46
123,Ozinki,RU,1641778424,51.1786,49.6769,12.24,82,100,12.08
124,Tuatapere,NZ,1641778424,-46.1333,167.6833,69.82,68,73,6.33
125,Bāsudebpur,IN,1641778424,21.1353,86.7386,67.44,67,0,3.58
126,Nouakchott,MR,1641778424,18.0858,-15.9785,69.73,30,100,8.41
127,Salalah,OM,1641778425,17.0151,54.0924,69.89,32,0,8.05
128,Jamestown,US,1641778425,42.097,-79.2353,28.04,61,100,11.99
129,Caibarién,CU,1641778425,22.5206,-79.4669,74.52,74,94,13.65
130,Neuquén,AR,1641778219,-38.9516,-68.0591,82.29,44,0,0.0
131,Airai,TL,1641778426,-8.9266,125.4092,72.03,70,37,2.3
132,Saint-Philippe,RE,1641778426,-21.3585,55.7679,76.59,85,100,11.97
133,Lahijan,IR,1641778426,37.2061,50.0029,46.18,78,7,4.92
134,Mondlo,ZA,1641778426,-27.983,30.7177,58.53,95,46,4.18
135,Wakkanai,JP,1641778427,45.4094,141.6739,26.58,74,40,13.8
136,Upernavik,GL,1641778427,72.7868,-56.1549,3.27,99,100,5.46
137,Kamaishi,JP,1641778427,39.2667,141.8833,27.55,54,90,2.57
138,Deputatsky,RU,1641778428,69.3,139.9,-26.99,94,8,5.37
139,Saint Paul Harbor,US,1641778239,57.79,-152.4072,28.31,71,100,16.98
140,Horsham,GB,1641778428,51.064,-0.3272,42.49,77,99,1.14
141,Shimonoseki,JP,1641778428,33.95,130.95,50.29,87,40,1.14
142,Lata,PT,1641778428,40.1629,-8.3327,55.81,99,100,3.0
143,Namatanai,PG,1641778429,-3.6667,152.4333,85.14,67,84,7.61
144,Mackay,AU,1641778429,-21.15,149.2,87.78,62,40,16.11
145,Los Llanos de Aridane,ES,1641778429,28.6585,-17.9182,65.95,21,0,11.99
146,Sihorā,IN,1641778429,23.4833,80.1167,57.58,91,0,2.28
147,Sitka,US,1641778430,57.0531,-135.33,46.29,71,75,17.27
148,Santa Engracia,ES,1641778430,41.9406,-1.3245,56.79,78,99,25.19
149,Pisco,PE,1641778430,-13.7,-76.2167,71.65,83,40,16.11
150,Bonavista,CA,1641778430,48.6499,-53.1147,29.12,87,100,22.97
151,Palmer,US,1641778270,42.1584,-72.3287,38.48,82,100,8.99
152,Magaria,NE,1641778431,12.9983,8.9099,60.57,18,0,12.88
153,Henties Bay,NA,1641778431,-22.116,14.2845,62.85,95,92,2.33
154,Honiara,SB,1641778431,-9.4333,159.95,88.66,62,68,9.69
155,Nikolskoye,RU,1641778432,59.7035,30.7861,24.69,100,94,2.77
156,Dalbeattie,GB,1641778432,54.9328,-3.8227,43.02,93,90,2.3
157,São Félix do Xingu,BR,1641778211,-6.6447,-51.995,70.65,99,100,2.06
158,Mossendjo,CG,1641778432,-2.9506,12.7261,70.2,99,99,3.09
159,Shahrud,IR,1641778432,36.4182,54.9763,31.71,59,0,1.86
160,Yenagoa,NG,1641778433,4.9247,6.2642,77.16,87,36,3.76
161,Verkhoyansk,RU,1641778433,67.5447,133.385,-39.08,100,41,1.9
162,Longyearbyen,SJ,1641778433,78.2186,15.6401,24.64,80,75,10.36
163,Saskylakh,RU,1641778433,71.9167,114.0833,3.0,93,93,8.32
164,Daru,PG,1641778434,-9.0763,143.2092,85.91,64,100,6.89
165,Norman Wells,CA,1641778434,65.282,-126.8329,-30.96,68,75,3.44
166,Thompson,CA,1641778434,55.7435,-97.8558,-21.84,69,0,9.22
167,Rosarito,MX,1641778434,32.3333,-117.0333,66.79,58,1,2.62
168,Anqiu,CN,1641778435,36.4342,119.1925,36.48,66,100,7.38
169,Hong Kong,HK,1641778435,22.2855,114.1577,66.38,80,100,1.99
170,Vestmanna,FO,1641778435,62.1564,-7.1664,41.92,87,75,21.85
171,Gainesville,US,1641778159,29.6516,-82.3248,71.31,72,75,0.0
172,Omboué,GA,1641778435,-1.5746,9.2618,76.73,92,100,5.57
173,Coyhaique,CL,1641778141,-45.5752,-72.0662,60.75,55,100,5.75
174,Bontang,ID,1641778436,0.1333,117.5,82.29,72,100,4.43
175,Guerrero Negro,MX,1641778436,27.9769,-114.0611,64.6,56,100,6.89
176,Devonport,AU,1641778436,-41.1667,146.35,72.09,68,89,7.52
177,Qaanaaq,GL,1641778436,77.484,-69.3632,2.89,68,100,7.99
178,Cam Ranh,VN,1641778437,11.9214,109.1591,80.56,65,40,10.36
179,Shar,KZ,1641778437,49.5886,81.0453,-7.73,100,84,1.99
180,Vardø,NO,1641778437,70.3705,31.1107,28.18,82,98,24.23
181,Luleå,SE,1641778437,65.5842,22.1547,-7.53,84,100,1.14
182,Gaza,PS,1641778438,31.5,34.4667,53.58,51,0,12.95
183,Longyan,CN,1641778438,25.1072,117.0225,59.11,72,95,1.41
184,Buala,SB,1641778438,-8.145,159.5921,84.65,73,74,7.07
185,Rincón de la Victoria,ES,1641778438,36.7172,-4.2758,57.85,62,28,13.85
186,Westport,US,1641778439,41.1415,-73.3579,39.99,95,100,1.01
187,Shīeli,KZ,1641778439,44.1667,66.75,29.95,87,89,8.75
188,Tyrma,RU,1641778439,50.0833,132.1667,-11.42,91,88,0.43
189,Port Elizabeth,ZA,1641778440,-33.918,25.5701,72.1,81,100,19.69
190,Gamba,GA,1641778440,-2.65,10.0,75.88,95,97,4.83
191,Hawkesbury,CA,1641778440,45.6001,-74.616,31.89,77,83,18.63
192,Turan,VN,1641778440,16.0678,108.2208,73.45,94,75,3.44
193,Jevnaker,NO,1641778441,60.2414,10.385,28.42,98,100,2.86
194,Srednekolymsk,RU,1641778441,67.45,153.6833,-12.96,98,100,4.16
195,Prokhorovka,RU,1641778441,51.0374,36.7325,29.77,97,100,10.04
196,Mahébourg,MU,1641778442,-20.4081,57.7,77.25,94,75,4.61
197,Khatanga,RU,1641778442,71.9667,102.5,-6.72,92,99,6.17
198,Yulara,AU,1641778280,-25.2406,130.9889,102.04,10,16,11.5
199,Acapulco de Juárez,MX,1641778357,16.8634,-99.8901,80.42,78,40,4.61
200,Fortuna,US,1641778442,40.5982,-124.1573,56.32,75,0,3.0
201,La Massana,AD,1641778442,42.5667,1.4833,41.31,99,100,13.42
202,Hwange,ZW,1641778443,-18.3693,26.5019,67.95,98,94,2.19
203,Nacala,MZ,1641778443,-14.5428,40.6728,73.67,95,100,6.26
204,Pangody,RU,1641778443,65.85,74.4859,-9.76,98,98,9.15
205,Comodoro Rivadavia,AR,1641778443,-45.8667,-67.5,75.06,27,0,20.71
206,Evensk,RU,1641778444,61.95,159.2333,10.69,77,100,8.48
207,Bengkulu,ID,1641778444,-3.8004,102.2655,80.74,77,42,1.16
208,Souillac,MU,1641778444,-20.5167,57.5167,77.36,94,75,4.61
209,Grand Gaube,MU,1641778444,-20.0064,57.6608,77.38,87,90,4.0
210,Lock Haven,US,1641778445,41.137,-77.4469,38.53,86,100,13.87
211,Chokurdakh,RU,1641778445,70.6333,147.9167,-25.62,94,16,8.43
212,Phan Thiet,VN,1641778445,10.9333,108.1,80.71,65,8,6.51
213,Nong’an,CN,1641778446,44.382,125.1685,10.81,88,100,7.2
214,Ahipara,NZ,1641778446,-35.1667,173.1667,74.28,61,93,7.38
215,Constitución,CL,1641778446,-35.3333,-72.4167,58.19,92,23,7.54
216,Klaksvík,FO,1641778446,62.2266,-6.589,43.72,84,100,37.31
217,Lebu,CL,1641778447,-37.6167,-73.65,58.64,93,2,5.44
218,Govlyar,AZ,1641778447,40.948,45.735,32.85,76,89,3.56
219,Berbérati,CF,1641778447,4.2612,15.7922,69.24,33,91,2.62
220,Nador,MA,1641778448,35.174,-2.9287,59.25,72,0,9.22
221,Juneau,US,1641778165,58.3019,-134.4197,23.0,88,100,5.75
222,Paamiut,GL,1641778448,61.994,-49.6678,12.67,85,100,22.15
223,Peruíbe,BR,1641778448,-24.32,-46.9983,69.28,92,99,3.44
224,Devrek,TR,1641778448,41.2192,31.9558,50.86,74,100,2.21
225,Victoria Point,AU,1641778449,-27.5833,153.3,88.18,69,76,5.99
226,Petropavlovsk-Kamchatskiy,RU,1641778449,53.0452,158.6483,34.39,69,75,15.66
227,Tuktoyaktuk,CA,1641778449,69.4541,-133.0374,-25.6,68,40,10.36
228,Ziway,ET,1641778449,7.9333,38.7167,62.89,71,9,8.72
229,Ratnagiri,IN,1641778450,16.9833,73.3,68.27,74,3,7.92
230,Donskoye,RU,1641778450,45.4552,41.9741,33.93,90,8,12.41
231,Saldanha,ZA,1641778450,-33.0117,17.9442,64.45,92,22,6.04
232,Morehead,US,1641778450,37.2711,-87.1764,32.11,69,0,4.0
233,Caravelas,BR,1641778451,-17.7125,-39.2481,77.4,86,100,9.15
234,Korla,CN,1641778451,41.7597,86.1469,22.23,68,77,5.23
235,Takoradze,GH,1641778451,4.8845,-1.7554,80.35,81,84,6.11
236,Vostok,RU,1641778452,46.4856,135.8833,0.93,87,13,2.17
237,Agua Dulce,MX,1641778452,18.1333,-94.1333,73.18,88,10,6.17
238,Carnot,CF,1641778452,4.9409,15.8665,69.6,31,13,2.77
239,Balyqshy,KZ,1641778452,47.0667,51.8667,24.8,93,100,15.66
240,Kashgar,CN,1641778453,39.4547,75.9797,22.21,58,40,4.47
241,Saint Anthony,US,1641778222,45.0205,-93.218,6.26,60,100,3.0
242,Grindavik,IS,1641778453,63.8424,-22.4338,41.47,87,100,46.04
243,Kamenka,RU,1641778453,51.3223,42.7678,23.76,83,100,14.2
244,Bowling Green,US,1641778446,36.9903,-86.4436,38.1,64,0,4.61
245,Kyabé,TD,1641778453,9.4515,18.9449,75.9,22,31,7.9
246,Dwārka,IN,1641778454,22.2394,68.9678,64.44,50,0,12.03
247,San Cristobal,VE,1641778454,7.7669,-72.225,68.18,94,17,2.37
248,Jiayuguan City,CN,1641778454,39.8167,98.3,20.59,54,0,5.26
249,Broken Hill,AU,1641778455,-31.95,141.4333,98.31,16,0,9.22
250,Zwedru,LR,1641778455,6.0667,-8.1281,74.14,95,62,1.99
251,Hervey Bay,AU,1641778455,-25.2986,152.8535,86.02,65,87,4.0
252,Bud,US,1641778455,39.447,-86.1758,27.12,62,0,11.86
253,Elizabeth City,US,1641778456,36.2946,-76.2511,64.45,81,20,1.01
254,Iqaluit,CA,1641778188,63.7506,-68.5145,-25.31,74,0,15.01
255,Grandview,US,1641778356,38.8858,-94.533,24.75,57,0,0.0
256,Faanui,PF,1641778456,-16.4833,-151.75,81.75,77,64,14.03
257,Santiago del Estero,AR,1641778456,-27.7951,-64.2615,84.81,25,31,9.15
258,Seoul,KR,1641778456,37.5683,126.9778,30.61,86,40,1.14
259,Moshi,TZ,1641778457,-3.35,37.3333,67.8,70,77,2.71
260,Gurupi,BR,1641778457,-11.7292,-49.0686,70.43,98,100,4.16
261,Te Anau,NZ,1641778457,-45.4167,167.7167,69.78,65,85,5.64
262,Magistral'nyy,RU,1641778457,56.1725,107.4458,-15.32,94,79,3.76
263,Kuching,MY,1641778458,1.55,110.3333,77.22,100,40,4.61
264,Avera,US,1641778458,33.194,-82.5271,62.47,95,100,4.54
265,Murray Bridge,AU,1641778458,-35.1167,139.2667,97.43,19,100,7.52
266,Rome,US,1641778458,43.2128,-75.4557,35.74,69,100,17.27
267,San Quintín,MX,1641778459,30.4833,-115.95,59.56,73,12,7.34
268,Ust'-Kulom,RU,1641778459,61.6864,53.6902,19.78,93,100,8.72
269,Siuna,NI,1641778459,13.7332,-84.7773,68.56,97,3,3.78
270,Aksarka,RU,1641778459,66.5606,67.7975,-2.51,88,90,12.48
271,Zaysan,KZ,1641778460,47.4667,84.8667,8.94,94,100,1.81
272,Akşehir,TR,1641778460,38.3575,31.4164,39.11,85,100,4.9
273,Alyangula,AU,1641778460,-13.8483,136.4192,89.47,58,89,8.05
274,Sergeevka,KZ,1641778460,53.88,67.4158,-7.71,98,14,6.82
275,Manitouwadge,CA,1641778461,49.1215,-85.8403,-5.08,86,100,11.79
276,Conceição das Alagoas,BR,1641778229,-19.9147,-48.3883,73.18,99,88,3.67
277,Tocopilla,CL,1641778461,-22.092,-70.1979,70.2,71,83,3.83
278,Mount Isa,AU,1641778461,-20.7333,139.5,98.37,25,99,10.36
279,Yining,CN,1641778462,29.0361,114.5636,45.37,88,100,1.3
280,Nyurba,RU,1641778462,63.2842,118.3319,-27.51,96,46,4.41
281,Brae,GB,1641778462,60.3964,-1.353,42.71,78,100,22.82
282,Talnakh,RU,1641778462,69.4865,88.3972,-5.8,97,100,4.85
283,Ancud,CL,1641778463,-41.8697,-73.8203,61.43,95,5,4.47
284,Benguela,AO,1641778396,-12.5763,13.4055,73.53,85,100,3.71
285,Port Blair,IN,1641778190,11.6667,92.75,78.87,74,84,7.99
286,High Level,CA,1641778218,58.5169,-117.136,-11.09,84,100,2.3
287,Lady Lake,US,1641778463,28.9175,-81.9229,72.23,85,75,0.0
288,Nelson,NZ,1641778463,-41.2833,173.2833,80.44,57,2,6.93
289,Nizwá,OM,1641778463,22.9333,57.5333,57.92,65,0,1.92
290,Aksarayskiy,RU,1641778464,46.7924,48.0119,31.95,91,63,16.73
291,Sulangan,PH,1641778464,11.1373,123.7228,79.74,79,96,7.52
292,Qaqortoq,GL,1641778464,60.7167,-46.0333,18.1,80,87,4.32
293,Coquimbo,CL,1641778279,-29.9533,-71.3436,64.13,82,0,6.91
294,Manjeshwar,IN,1641778464,12.7194,74.8861,72.55,88,52,6.06
295,Talakan,RU,1641778465,50.3167,130.3667,-11.34,90,46,0.54
296,Benghazi,LY,1641778465,32.1167,20.0667,60.04,53,100,29.95
297,Nastola,FI,1641778465,60.95,25.9333,12.13,96,23,4.99
298,Kutum,SD,1641778465,14.2,24.6667,64.53,27,0,14.45
299,Patos de Minas,BR,1641778466,-18.5789,-46.5181,66.31,99,100,4.32
300,Pochutla,MX,1641778466,15.7432,-96.4661,77.85,75,63,3.06
301,Buenos Aires,AR,1641778200,-34.6132,-58.3772,80.02,66,0,11.5
302,Koróni,GR,1641778466,36.8,21.95,50.07,62,100,6.6
303,Balikpapan,ID,1641778467,-1.2675,116.8289,77.99,89,20,4.61
304,Sinnamary,GF,1641778467,5.3833,-52.95,75.56,86,96,6.51
305,San Patricio,US,1641778467,28.017,-97.5169,69.89,59,100,19.89
306,Cabo San Lucas,MX,1641778223,22.8909,-109.9124,73.62,83,100,0.0
307,Pombas,CV,1641778468,17.1503,-25.0201,67.78,80,14,6.98
308,Dedza,MW,1641778468,-14.3779,34.3332,59.04,91,100,1.68
309,Altay,CN,1641778468,47.8667,88.1167,13.46,79,88,4.65
310,Brigantine,US,1641778468,39.4101,-74.3646,44.65,98,100,5.75
311,Ballina,AU,1641778469,-28.8667,153.5667,84.38,71,75,9.22
312,Fairbanks,US,1641778316,64.8378,-147.7164,-9.4,70,20,5.75
313,Maniitsoq,GL,1641778469,65.4167,-52.9,11.82,89,100,8.59
314,Arman',RU,1641778469,59.7,150.1667,16.02,82,100,9.53
315,Cayenne,GF,1641778207,4.9333,-52.3333,79.09,81,0,0.0
316,Muros,ES,1641778469,42.7762,-9.0603,58.08,95,100,5.99
317,Jijiga,ET,1641778470,9.35,42.8,59.83,55,0,5.19
318,Wajir,KE,1641778470,1.7471,40.0573,77.32,70,6,13.31
319,Mocuba,MZ,1641778470,-16.8392,36.9856,71.47,97,99,2.35
320,Synya,RU,1641778471,65.3718,58.0387,3.99,92,100,9.95
321,Tete,MZ,1641778471,-16.1564,33.5867,77.09,83,75,0.0
322,Portland,US,1641777925,45.5234,-122.6762,46.92,64,0,13.0
323,Talara,PE,1641778471,-4.5772,-81.2719,70.48,85,73,11.1
324,Gandai,IN,1641778471,21.6667,81.1,61.56,87,83,1.83
325,Pevek,RU,1641778472,69.7008,170.3133,-15.36,100,96,2.95
326,Half Moon Bay,US,1641778472,37.4636,-122.4286,57.61,79,0,0.0
327,Morón,AR,1641778472,-34.6534,-58.6198,80.02,65,77,3.0
328,Yeppoon,AU,1641778472,-23.1333,150.7333,83.98,61,49,16.42
329,Adrar,MR,1641778473,20.5022,-10.0711,57.4,14,99,8.19
330,Flinders,AU,1641778473,-34.5833,150.8552,82.2,83,86,4.0
331,Tabas,IR,1641778473,33.5959,56.9244,43.66,40,0,1.52
332,Kieta,PG,1641778473,-6.2167,155.6333,86.0,70,40,12.55
333,Syumsi,RU,1641778474,57.1111,51.6149,13.17,89,100,9.53
334,Sambava,MG,1641778474,-14.2667,50.1667,75.16,90,99,4.74
335,Lompoc,US,1641778474,34.6391,-120.4579,60.78,83,0,3.44
336,Iluppūr,IN,1641778475,10.5135,78.6236,72.75,88,1,3.6
337,Port Lincoln,AU,1641778222,-34.7333,135.8667,84.76,39,99,8.72
338,Vadsø,NO,1641778475,70.0744,29.7487,16.68,80,100,19.64
339,Onverwacht,SR,1641778475,5.5833,-55.1833,77.86,89,40,3.44
340,Dingle,PH,1641778475,10.9995,122.6711,82.31,76,78,8.55
341,Albanel,CA,1641778476,48.8832,-72.4487,21.34,68,60,25.32
342,Berbera,SO,1641778476,10.4396,45.0143,72.32,75,7,5.26
343,Álamos,MX,1641778208,27.0167,-108.9333,66.72,47,100,3.85
344,Tahe,CN,1641778476,52.3333,124.7333,-8.9,77,62,3.83
345,Nevşehir,TR,1641778477,38.9167,34.6667,36.61,93,75,5.75
346,Zhanakorgan,KZ,1641778477,43.9098,67.2495,30.78,79,77,6.38
347,Kiryat Gat,IL,1641778262,31.61,34.7642,55.4,26,0,9.13
348,Kīhei,US,1641778277,20.785,-156.4656,82.42,69,20,8.05
349,Kupang,ID,1641778477,-10.1667,123.5833,88.38,70,40,5.75
350,Varna,BG,1641778477,43.2167,27.9167,48.24,100,100,5.75
351,Sansepolcro,IT,1641778478,43.5747,12.143,36.93,80,100,6.08
352,Dunedin,NZ,1641778478,-45.8742,170.5036,65.71,72,39,9.17
353,Ol'ga,RU,1641778478,43.7444,135.2892,16.48,30,0,4.99
354,Aklavik,CA,1641778478,68.2191,-135.0107,-24.77,98,11,3.42
355,Meulaboh,ID,1641778479,4.1363,96.1285,75.04,93,100,3.02
356,Ndola,ZM,1641778479,-12.9587,28.6366,63.28,91,100,3.22
357,Nome,US,1641778479,64.5011,-165.4064,6.87,47,0,20.71
358,Ōhara,JP,1641778479,35.25,140.3833,52.02,81,100,19.3
359,Berlevåg,NO,1641778480,70.8578,29.0864,31.84,73,100,27.16
360,Hohhot,CN,1641778480,40.8106,111.6522,12.49,52,0,15.66
361,Conde,BR,1641778242,-7.2597,-34.9075,78.26,83,0,4.61
362,Lagoa,PT,1641778480,39.05,-27.9833,60.17,73,100,16.73
363,Tabuk,PH,1641778448,17.4189,121.4443,75.34,76,46,2.66
364,Margate,GB,1641778450,51.3813,1.3862,39.69,83,11,4.54
365,Bambari,CF,1641778481,5.768,20.6757,84.06,25,83,2.01
366,Padang,ID,1641778268,-0.9492,100.3543,77.05,90,100,7.14
367,Akdepe,TM,1641778481,42.0551,59.3788,32.09,83,11,9.8
368,Mabaruma,GY,1641778481,8.2,-59.7833,69.49,96,7,2.21
369,Boguchany,RU,1641778354,58.3814,97.4531,26.19,90,100,12.64
370,Riorges,FR,1641778481,46.0418,4.0497,38.68,97,100,3.58
371,Hokitika,NZ,1641778482,-42.7167,170.9667,67.8,71,85,5.93
372,Manzhouli,CN,1641778482,49.6,117.4333,-6.77,84,20,5.73
373,Malé,MV,1641778482,4.1748,73.5089,80.55,83,75,9.22
374,Pacific Grove,US,1641778482,36.6177,-121.9166,59.11,78,0,5.99
375,Hvolsvollur,IS,1641778483,63.7533,-20.2243,37.81,77,100,30.44
376,Stolin,BY,1641778483,51.8912,26.846,22.26,98,67,5.3
377,Rāvar,IR,1641778483,31.2656,56.8055,41.95,38,0,1.36
378,Östersund,SE,1641778484,63.1792,14.6357,3.49,98,78,3.6
379,Faya,SA,1641778484,18.3851,42.4509,51.91,71,0,2.93
380,Belmonte,BR,1641778484,-15.8631,-38.8828,77.5,88,100,9.1
381,Morena,IN,1641778484,26.4969,78.0,49.24,86,0,6.04
382,Bereda,ES,1641778485,43.2686,-7.5406,53.15,100,100,3.94
383,Kununurra,AU,1641778485,-15.7667,128.7333,91.38,62,10,1.14
384,Abu Dhabi,AE,1641778343,24.4667,54.3667,67.96,81,0,2.3
385,Bom Jesus,BR,1641778485,-9.0744,-44.3586,72.73,94,100,2.37
386,Rocha,UY,1641778485,-34.4833,-54.3333,66.42,86,0,11.72
387,Hay River,CA,1641778486,60.8156,-115.7999,-20.24,76,75,1.14
388,Santo Amaro da Imperatriz,BR,1641778486,-27.6881,-48.7786,73.76,99,100,1.25
389,Almaznyy,RU,1641778486,48.0448,40.045,32.14,88,100,12.8
390,Kavieng,PG,1641778438,-2.5744,150.7967,84.07,69,100,7.63
391,Saint George,US,1641778379,37.1041,-113.5841,50.95,36,0,1.01
392,Gwadar,PK,1641778487,25.1216,62.3254,64.2,41,0,5.64
393,Waddān,LY,1641778487,29.1614,16.139,46.94,44,39,11.1
394,Clyde River,CA,1641778487,70.4692,-68.5914,-3.77,84,100,26.46
395,Narsaq,GL,1641778488,60.9167,-46.05,17.82,89,95,3.44
396,Tiznit Province,MA,1641778488,29.5833,-9.5,54.19,30,59,4.14
397,Ulladulla,AU,1641778488,-35.35,150.4667,87.76,69,72,11.01
398,Bambous Virieux,MU,1641778488,-20.3428,57.7575,77.22,94,75,4.61
399,Pierre,US,1641778488,44.3683,-100.351,18.52,67,0,8.05
400,Okhotsk,RU,1641778327,59.3833,143.3,8.62,76,100,13.67
401,Coihueco,CL,1641778489,-36.6167,-71.8333,63.34,72,0,10.36
402,Susurluk,TR,1641778489,39.9136,28.1578,52.84,77,100,2.44
403,Buraidah,SA,1641778489,26.326,43.975,61.25,38,51,9.71
404,Great Yarmouth,GB,1641778305,52.6083,1.7305,39.94,86,100,7.02
405,Vaitape,PF,1641778490,-16.5167,-151.75,81.77,77,63,13.8
406,Sibolga,ID,1641778490,1.7427,98.7792,79.25,81,100,1.01
407,Along,IN,1641778490,28.1667,94.7667,58.03,68,99,1.61
408,Vernon,CA,1641778418,50.2581,-119.2691,30.29,87,98,5.75
409,Sunrise Manor,US,1641778490,36.2111,-115.0731,58.51,25,0,1.14
410,Laas,IT,1641778208,46.6166,10.7002,27.48,82,97,4.94
411,Mezen',RU,1641778491,65.8522,44.24,13.19,92,100,12.5
412,Hurghada,EG,1641778491,27.2574,33.8129,57.24,51,0,6.91
413,Zyryanka,RU,1641778491,65.75,150.85,-8.23,98,98,4.16
414,Boa Vista,BR,1641778329,2.8197,-60.6733,82.38,51,0,6.91
415,Pudozh,RU,1641778492,61.8099,36.5345,-14.73,100,71,2.68
416,San Rafael del Sur,NI,1641778492,11.8485,-86.4384,79.77,63,0,14.07
417,Isiro,CD,1641778492,2.7739,27.616,68.4,70,100,0.89
418,Yerbogachën,RU,1641778492,61.2767,108.0108,-7.76,79,99,9.53
419,Caucayá,CO,1641778493,-0.1934,-74.7819,79.7,58,100,4.07
420,Pueblo Bello,CO,1641778493,8.2041,-76.526,73.36,92,100,1.57
421,Puerto Colombia,CO,1641778493,10.9878,-74.9547,78.89,78,31,26.62
422,Kroonstad,ZA,1641778493,-27.6504,27.2349,63.75,72,36,4.59
423,Paracuru,BR,1641778494,-3.41,-39.0306,82.42,82,100,7.02
424,Mount Gambier,AU,1641778494,-37.8333,140.7667,85.91,25,100,6.91
425,Pandan,PH,1641778494,14.0453,124.1694,81.37,74,79,5.64
426,Homer,US,1641778494,59.6425,-151.5483,17.47,59,0,6.91
427,Diego de Almagro,CL,1641778276,-26.3667,-70.05,64.44,53,57,2.17
428,Havøysund,NO,1641778495,70.9963,24.6622,29.28,67,100,19.19
429,Bandarbeyla,SO,1641778495,9.4942,50.8122,76.71,61,88,18.81
430,Ixtapa,MX,1641778495,20.7,-105.2,74.43,78,75,4.61
431,Cuautepec,MX,1641778495,16.7,-99.0,74.64,76,91,3.36
432,Port Hawkesbury,CA,1641778496,45.6169,-61.3485,43.18,91,100,8.01
433,Ostrovnoy,RU,1641778496,68.0531,39.5131,27.82,67,100,19.08
434,São Gabriel da Cachoeira,BR,1641778496,-0.1303,-67.0892,72.09,98,100,1.36
435,Irbit,RU,1641778497,57.6705,63.071,7.84,90,99,10.85
436,Sorong,ID,1641778497,-0.8833,131.25,82.69,75,30,4.72
437,Nadezhda,RU,1641778497,44.1,44.6,36.9,94,67,1.97
438,Dovolnoye,RU,1641778497,54.4958,79.6671,-7.67,100,7,7.23
439,Kulashi,GE,1641778498,42.2044,42.3494,53.69,43,0,24.16
440,Nadym,RU,1641778498,65.5333,72.5167,-7.64,92,13,11.07
441,Djibo,BF,1641778498,14.1022,-1.6306,63.86,14,16,9.04
442,Nuuk,GL,1641778498,64.1835,-51.7216,14.61,79,75,3.44
443,Żurrieq,MT,1641778499,35.8311,14.4742,49.96,81,20,14.97
444,Zhalantun,CN,1641778499,48.0,122.7167,3.2,89,100,3.96
445,Coahuayana Viejo,MX,1641778499,18.7333,-103.6833,87.28,76,72,0.85
446,Autun,FR,1641778500,46.95,4.3,38.23,99,98,0.45
447,Nālūt,LY,1641778500,30.3333,10.85,43.09,36,42,15.75
448,Umluj,SA,1641778500,25.0213,37.2685,72.34,60,96,18.63
449,Port Macquarie,AU,1641778500,-31.4333,152.9167,83.89,64,9,11.59
450,Inhambane,MZ,1641778501,-23.865,35.3833,73.87,91,23,6.24
451,Guadalupe y Calvo,MX,1641778501,26.1,-106.9667,45.48,42,100,3.91
452,Umm Hājar,TD,1641778501,13.2954,19.6966,68.02,23,0,10.11
453,Gibara,CU,1641778501,21.1097,-76.1317,74.52,82,80,13.67
454,Büren,DE,1641778502,51.55,8.5667,37.63,90,100,6.91
455,Iralaya,HN,1641778502,15.0,-83.2333,76.57,84,8,12.19
456,Ndélé,CF,1641778502,8.4109,20.6473,73.99,29,17,4.18
457,Pallasovka,RU,1641778502,50.05,46.8833,18.18,82,100,12.35
458,São Miguel do Araguaia,BR,1641778503,-13.275,-50.1628,70.39,99,100,6.08
459,Lolodorf,CM,1641778503,3.2333,10.7333,72.1,94,100,2.8
460,Moussoro,TD,1641778503,13.6408,16.4901,65.8,15,16,11.61
461,Sosnovo-Ozerskoye,RU,1641778504,52.5249,111.5418,-22.32,99,49,0.4
462,Tazmalt,DZ,1641778504,36.3868,4.3989,48.6,72,42,6.33
463,Tricase,IT,1641778504,39.9304,18.3553,47.32,76,100,2.68
464,Batemans Bay,AU,1641778504,-35.7167,150.1833,92.19,62,5,10.96
465,Miyako,JP,1641778505,39.6367,141.9525,38.43,51,67,1.57
466,Russell,US,1641778505,32.3502,-85.1999,60.96,96,75,0.0
467,Steinbach am Taunus,DE,1641778505,50.1667,8.5667,36.86,93,0,2.3
468,Seymchan,RU,1641778505,62.8833,152.4333,-18.35,98,70,1.72
469,Marsh Harbour,BS,1641778506,26.5412,-77.0636,74.5,66,100,15.05
470,Correntina,BR,1641778506,-13.3433,-44.6367,69.58,96,100,2.21
471,Amapá,BR,1641778506,1.0,-52.0,71.76,94,100,0.34
472,Villazón,BO,1641778506,-22.0866,-65.5942,52.47,73,89,11.05
473,La Ligua,CL,1641778507,-32.4524,-71.2311,62.38,76,80,2.86
474,Teacapan,MX,1641778507,22.55,-105.75,69.6,75,93,8.88
475,Oistins,BB,1641778507,13.0667,-59.5333,77.09,69,40,19.57
476,Pundaguitan,PH,1641778507,6.3711,126.1689,81.05,78,100,8.81
477,Aykhal,RU,1641778508,66.0,111.5,0.41,94,100,18.88
478,Key West,US,1641778351,24.5557,-81.7826,78.8,84,0,6.91
479,Zelenoborsk,RU,1641778508,61.4669,64.0333,7.45,94,96,8.32
480,Atambua,ID,1641778508,-9.1061,124.8925,82.13,69,57,4.25
481,Lahaina,US,1641778155,20.8783,-156.6825,82.4,79,0,1.03
482,Olafsvik,IS,1641778509,64.8945,-23.7142,40.08,94,100,35.14
483,Alofi,NU,1641778509,-19.0595,-169.9187,84.09,74,99,8.05
484,Prince George,CA,1641778417,53.9166,-122.753,33.24,80,0,14.97
485,San Miguel de Tucumán,AR,1641778509,-26.8241,-65.2226,80.6,74,75,3.44
486,Mubārakpur,IN,1641778509,26.09,83.2922,58.05,80,4,4.79
487,Praia da Vitória,PT,1641778510,38.7333,-27.0667,60.76,94,75,16.96
488,Sangar,RU,1641778510,63.9242,127.4739,-42.38,98,94,3.69
489,Salamiyah,SY,1641778510,35.0113,37.0532,48.38,77,0,7.34
490,Cuiabá,BR,1641778279,-15.5961,-56.0967,78.73,89,0,8.05
491,Bilma,NE,1641778510,18.6853,12.9164,49.1,27,2,11.16
492,Hambantota,LK,1641778353,6.1241,81.1185,75.54,100,75,8.05
493,Borskoye,RU,1641778511,53.0333,51.7167,6.17,85,100,9.57
494,Batagay,RU,1641778511,67.6333,134.6333,-33.48,97,12,4.05
495,Hobyo,SO,1641778511,5.3505,48.5268,76.73,66,12,19.98
496,Novikovo,RU,1641778511,51.1537,37.8879,24.55,94,100,9.78
497,Preston,GB,1641778512,53.7667,-2.7167,44.85,93,62,4.05
498,Quang Ngai,VN,1641778289,15.1167,108.8,73.85,85,100,2.19
499,Ponnāni,IN,1641778512,10.767,75.9252,76.32,85,31,6.04
500,Lapua,FI,1641778512,62.9693,23.0088,-6.9,98,5,0.96
501,Manokwari,ID,1641778512,-0.8667,134.0833,82.54,69,100,4.99
502,Loandjili,CG,1641778513,-4.7561,11.8578,77.11,94,100,3.44
503,Karwar,IN,1641778513,14.8,74.1333,69.94,87,100,6.85
504,Gizo Government Station,SB,1641778513,-8.103,156.8419,81.45,81,95,11.7
505,Ṭikāpur,NP,1641778514,28.5,81.1333,56.19,86,66,3.18
506,Wakefield,GB,1641778514,53.6809,-1.499,44.01,91,97,3.4
507,Jertih,MY,1641778514,5.7336,102.4897,76.91,75,92,3.04
508,Codrington,AU,1641778514,-38.2667,141.9667,74.28,53,71,13.58
509,Butte,US,1641778475,39.6499,-121.5677,56.75,75,0,0.0
510,Brekstad,NO,1641778515,63.687,9.6654,33.01,64,0,12.66
511,Moorhead,US,1641778515,46.8739,-96.7676,-7.58,74,0,4.61
512,Prainha,BR,1641778515,-1.8,-53.48,72.21,98,100,1.95
513,Fonte Boa,BR,1641778515,-2.4959,-66.2662,73.9,97,99,1.41
514,Klyuchi,RU,1641778516,52.2667,79.1667,-2.18,100,54,5.1
515,Treinta y Tres,UY,1641778516,-33.2333,-54.3833,67.55,80,0,13.22
516,Fryanovo,RU,1641778516,56.1333,38.45,20.64,97,100,3.94
517,Hammerfest,NO,1641778516,70.6634,23.6821,28.85,74,100,12.66
518,Opuwo,NA,1641778290,-18.0607,13.84,62.51,39,83,2.59
519,Chimbarongo,CL,1641778283,-34.7,-71.05,70.68,65,86,2.35
520,Grand Forks,US,1641778517,47.9417,-97.4337,-9.72,70,0,8.05
521,Usinsk,RU,1641778517,65.9939,57.5281,2.35,96,100,16.06
522,Umarkot,PK,1641778517,25.3616,69.7362,56.68,56,0,6.67
523,Sandpoint,US,1641778222,48.2766,-116.5533,30.74,93,0,0.0
524,Narrabri,AU,1641778518,-30.3167,149.7833,92.52,45,27,5.75
525,Voh,NC,1641778518,-20.9667,164.7,85.96,65,51,7.14
526,Alcúdia,ES,1641778310,39.8532,3.1214,61.2,76,100,8.01
527,Paranhos,BR,1641778518,-23.8928,-55.4311,71.06,66,76,5.77
528,Tautira,PF,1641778518,-17.7333,-149.15,78.82,80,100,25.08
529,Mopti,ML,1641778519,14.6667,-4.0,64.83,15,18,10.02
530,Burgeo,CA,1641778519,47.6167,-57.6152,34.12,98,100,31.65
531,Ojinaga,MX,1641778519,29.5667,-104.4167,57.42,38,0,19.57
532,Mitsamiouli,KM,1641778520,-11.3847,43.2844,82.78,73,88,9.98
533,Lüderitz,NA,1641778520,-26.6481,15.1594,61.84,96,10,4.9
534,Kysyl-Syr,RU,1641778520,63.8986,122.7617,-37.79,100,50,3.38
535,Touros,BR,1641778520,-5.1989,-35.4608,79.7,76,99,11.03
536,Fort Nelson,CA,1641778521,58.8053,-122.7002,-18.81,76,100,0.0
537,Old Town,CZ,1641778521,50.087,14.4202,37.4,90,100,3.0
538,Vuktyl,RU,1641778521,63.8567,57.3094,9.27,95,100,8.57
539,Parabel',RU,1641778521,58.6978,81.4825,-2.13,93,39,10.56
540,Kismayo,SO,1641778522,-0.3582,42.5454,78.48,82,45,14.18
541,Mossamedes,AO,1641778522,-15.1961,12.1522,65.01,79,37,4.25
542,Bulawayo,ZW,1641778522,-20.15,28.5833,63.21,82,99,6.33
543,Dallas,US,1641778225,32.7668,-96.7836,50.61,49,100,3.0
544,Nhulunbuy,AU,1641778522,-12.2333,136.7667,90.21,66,75,10.36
545,Carinhanha,BR,1641778523,-14.3047,-43.765,71.13,96,100,3.38
546,Aswān,EG,1641778523,24.0934,32.907,58.3,41,0,12.66
547,Kosh-Agach,RU,1641778523,50.0,88.6667,-7.6,77,99,2.51
548,Yar-Sale,RU,1641778523,66.8333,70.8333,-9.67,96,58,8.01
549,Luancheng,CN,1641778524,37.8792,114.6517,30.36,62,100,7.05
550,Yoichi,JP,1641778524,43.2039,140.7703,12.24,61,97,9.33
551,Dolores,AR,1641778524,-36.3132,-57.6792,66.09,93,57,8.08
552,La Ronge,CA,1641778524,55.1001,-105.2842,-16.35,69,0,4.61
553,Mount Darwin,ZW,1641778525,-16.7725,31.5838,66.9,94,100,2.35
554,Wolfen,DE,1641778525,51.6667,12.2833,38.79,84,98,6.6
555,San Rafael,AR,1641778525,-34.6177,-68.3301,84.58,28,98,8.5
556,Oskemen,KZ,1641778525,49.9565,82.6119,3.16,85,75,0.0
557,Bokoro,TD,1641778526,12.3807,17.0568,68.49,21,42,10.63
558,Slave Lake,CA,1641778526,55.2834,-114.769,-0.42,71,100,12.66
559,Yangi Marg`ilon,UZ,1641778521,40.4272,71.7189,38.12,65,75,2.3
560,Hailar,CN,1641778526,49.2,119.7,-13.04,91,23,3.8
561,Normandin,CA,1641778526,48.8333,-72.5321,21.51,68,43,25.32
562,Kalāleh,IR,1641778527,37.3807,55.4916,34.16,46,0,5.82
563,Kabompo,ZM,1641778527,-13.5927,24.2008,63.91,97,100,3.33
564,Ullapool,GB,1641778527,57.8987,-5.1604,34.95,93,100,8.79
565,Ust'-Ishim,RU,1641778527,57.6935,71.1665,5.49,89,100,8.39
566,Ovsyanka,RU,1641778528,55.9575,92.5519,24.22,85,46,16.24
567,Antalaha,MG,1641778528,-14.9003,50.2788,74.8,91,100,5.57
568,Biak,ID,1641778528,-0.9131,122.8766,83.28,62,100,1.1
569,Băneasa,RO,1641778528,44.0461,26.0642,40.98,89,100,13.56
570,Otegen Batyra,KZ,1641778529,43.4278,77.0222,28.96,93,100,6.71
571,Tubualá,PA,1641778529,9.5167,-79.0333,79.34,82,36,16.4
572,Anshun,CN,1641778529,26.25,105.9333,43.18,91,100,5.77
